<?xml version="1.0" encoding="utf-8"?>
<ArrayOfClient xmlns:xsi="http://www.w3.org/2001/XMLSchema-instance" xmlns:xsd="http://www.w3.org/2001/XMLSchema">
  <Client>
    <Id>295661672</Id>
    <Name>Ywk</Name>
    <PhoneNumber>0539728658</PhoneNumber>
    <Longitude>34.72723782085096</Longitude>
    <Latitude>31.8780769200329</Latitude>
    <Active>false</Active>
  </Client>
  <Client>
    <Id>600786717</Id>
    <Name>Oggwb</Name>
    <PhoneNumber>0507728852</PhoneNumber>
    <Longitude>34.83092321246071</Longitude>
    <Latitude>31.83092321246071</Latitude>
    <Active>True</Active>
  </Client>
  <Client>
    <Id>522167800</Id>
    <Name>Vse fgdfgdfgfdfgd</Name>
    <PhoneNumber>0503389488</PhoneNumber>
    <Longitude>34.66586515449866</Longitude>
    <Latitude>31.66586515449866</Latitude>
    <Active>True</Active>
  </Client>
  <Client>
    <Id>660086631</Id>
    <Name>Yerodq</Name>
    <PhoneNumber>0521139726</PhoneNumber>
    <Longitude>34.72233764519624</Longitude>
    <Latitude>31.820190873604652</Latitude>
    <Active>true</Active>
  </Client>
  <Client>
    <Id>735400381</Id>
    <Name>Dtis</Name>
    <PhoneNumber>0502992501</PhoneNumber>
    <Longitude>34.770318188724346</Longitude>
    <Latitude>31.95219391037637</Latitude>
    <Active>true</Active>
  </Client>
  <Client>
    <Id>591423863</Id>
    <Name>Sldyc</Name>
    <PhoneNumber>0521985598</PhoneNumber>
    <Longitude>34.75681810343021</Longitude>
    <Latitude>32.05327808523327</Latitude>
    <Active>true</Active>
  </Client>
  <Client>
    <Id>160537019</Id>
    <Name>Pmxbxk</Name>
    <PhoneNumber>0559792148</PhoneNumber>
    <Longitude>34.8245042988593</Longitude>
    <Latitude>31.94281576785756</Latitude>
    <Active>true</Active>
  </Client>
  <Client>
    <Id>647541630</Id>
    <Name>Aebji</Name>
    <PhoneNumber>0525459804</PhoneNumber>
    <Longitude>34.73603504157726</Longitude>
    <Latitude>31.866628498784383</Latitude>
    <Active>true</Active>
  </Client>
  <Client>
    <Id>206870822</Id>
    <Name>Ckwfna</Name>
    <PhoneNumber>0545267318</PhoneNumber>
    <Longitude>34.71376824495921</Longitude>
    <Latitude>31.926210074685223</Latitude>
    <Active>true</Active>
  </Client>
  <Client>
    <Id>579917482</Id>
    <Name>Ybcafs</Name>
    <PhoneNumber>0524061726</PhoneNumber>
    <Longitude>34.8050634373223</Longitude>
    <Latitude>31.905193040785168</Latitude>
    <Active>true</Active>
  </Client>
  <Client>
    <Id>545670583</Id>
    <Name>Pph</Name>
    <PhoneNumber>0543934084</PhoneNumber>
    <Longitude>34.72723782085096</Longitude>
    <Latitude>31.8780769200329</Latitude>
    <Active>true</Active>
  </Client>
  <Client>
    <Id>757455829</Id>
    <Name>Onnc</Name>
    <PhoneNumber>0526432776</PhoneNumber>
    <Longitude>34.83092321246071</Longitude>
    <Latitude>31.890176390661207</Latitude>
    <Active>true</Active>
  </Client>
  <Client>
    <Id>652497859</Id>
    <Name>Uqaer</Name>
    <PhoneNumber>0507882389</PhoneNumber>
    <Longitude>34.66586515449866</Longitude>
    <Latitude>31.796158578989683</Latitude>
    <Active>true</Active>
  </Client>
  <Client>
    <Id>630172478</Id>
    <Name>Zwlmss</Name>
    <PhoneNumber>0508861527</PhoneNumber>
    <Longitude>34.72233764519624</Longitude>
    <Latitude>31.820190873604652</Latitude>
    <Active>true</Active>
  </Client>
  <Client>
    <Id>300787720</Id>
    <Name>Mdr</Name>
    <PhoneNumber>0524171012</PhoneNumber>
    <Longitude>34.770318188724346</Longitude>
    <Latitude>31.95219391037637</Latitude>
    <Active>true</Active>
  </Client>
  <Client>
    <Id>407756688</Id>
    <Name>Fapye</Name>
    <PhoneNumber>0541935333</PhoneNumber>
    <Longitude>34.75681810343021</Longitude>
    <Latitude>32.05327808523327</Latitude>
    <Active>true</Active>
  </Client>
  <Client>
    <Id>907015407</Id>
    <Name>Pnrtkt</Name>
    <PhoneNumber>0531861309</PhoneNumber>
    <Longitude>34.8245042988593</Longitude>
    <Latitude>31.94281576785756</Latitude>
    <Active>true</Active>
  </Client>
  <Client>
    <Id>826924911</Id>
    <Name>Isdk</Name>
    <PhoneNumber>0533945298</PhoneNumber>
    <Longitude>34.73603504157726</Longitude>
    <Latitude>31.866628498784383</Latitude>
    <Active>true</Active>
  </Client>
  <Client>
    <Id>392958792</Id>
    <Name>Ialpj</Name>
    <PhoneNumber>0554669347</PhoneNumber>
    <Longitude>34.71376824495921</Longitude>
    <Latitude>31.926210074685223</Latitude>
    <Active>true</Active>
  </Client>
  <Client>
    <Id>366557089</Id>
    <Name>Pfdzm</Name>
    <PhoneNumber>0544827661</PhoneNumber>
    <Longitude>34.8050634373223</Longitude>
    <Latitude>31.905193040785168</Latitude>
    <Active>true</Active>
  </Client>
</ArrayOfClient>